[{"id":1,"city":"Jasaan","street_address":"50983 Hauk Avenue","name":"luctus","longitude":"124.75556","latitude":"8.65417"},
{"id":2,"city":"Sujiatuo","street_address":"75 Clarendon Road","name":"magna","longitude":"116.1586","latitude":"40.07669"},
{"id":3,"city":"Balekambang","street_address":"39857 Shelley Drive","name":"ultrices posuere cubilia","longitude":"108.7661","latitude":"-7.2319"},
{"id":4,"city":"Richmond","street_address":"07138 Bunting Junction","name":"eu","longitude":"173.18333","latitude":"-41.33333"},
{"id":5,"city":"Venlo","street_address":"97 Sachs Center","name":"nunc","longitude":"6.1681","latitude":"51.37"},
{"id":6,"city":"Karangintan","street_address":"059 Lakeland Alley","name":"arcu libero","longitude":"115.0134","latitude":"-3.4116"},
{"id":7,"city":"Zambujal","street_address":"09 Shoshone Hill","name":"bibendum","longitude":"-9.35","latitude":"38.7167"},
{"id":8,"city":"Bruxelles","street_address":"718 Old Shore Crossing","name":"faucibus orci","longitude":"4.3528","latitude":"50.8466"},
{"id":9,"city":"Bodø","street_address":"3 Kingsford Lane","name":"eget","longitude":"14.589","latitude":"67.2933"},
{"id":10,"city":"Indulang","street_address":"3351 Oak Valley Road","name":"rhoncus","longitude":"124.58444","latitude":"8.09028"},
{"id":11,"city":"Liangcunchang","street_address":"36 Wayridge Alley","name":"sit","longitude":"106.42444","latitude":"28.40667"},
{"id":12,"city":"Padre Bernardo","street_address":"37810 Hanson Place","name":"tincidunt","longitude":"-48.28281","latitude":"-15.16595"},
{"id":13,"city":"Ordzhonikidzevskiy","street_address":"179 Stang Avenue","name":"platea dictumst maecenas","longitude":"41.89636","latitude":"43.84233"},
{"id":14,"city":"Tanbu","street_address":"12124 Loomis Alley","name":"venenatis","longitude":"112.55979","latitude":"23.62306"},
{"id":15,"city":"Tavira","street_address":"528 Northland Road","name":"ac","longitude":"-7.8089","latitude":"37.1917"},
{"id":16,"city":"Pereyaslav-Khmel’nyts’kyy","street_address":"14632 Upham Lane","name":"ligula","longitude":"31.44969","latitude":"50.06739"},
{"id":17,"city":"Torbat-e Jām","street_address":"39598 Evergreen Trail","name":"etiam","longitude":"60.6225","latitude":"35.244"},
{"id":18,"city":"Uubulan","street_address":"16988 Pearson Plaza","name":"integer","longitude":"101.93424","latitude":"48.60885"},
{"id":19,"city":"Tsul-Ulaan","street_address":"6 Northport Junction","name":"augue a","longitude":"104.5","latitude":"47.83333"},
{"id":20,"city":"Verkhovyna","street_address":"1 Sycamore Road","name":"etiam justo","longitude":"24.79112","latitude":"48.15571"},
{"id":21,"city":"Tianhe","street_address":"49 Lotheville Lane","name":"tellus nisi","longitude":"108.19341","latitude":"31.28761"},
{"id":22,"city":"Sukasari","street_address":"5574 Clarendon Junction","name":"aliquet","longitude":"108.8607","latitude":"-7.2346"},
{"id":23,"city":"Huacheng","street_address":"977 Northview Road","name":"neque vestibulum eget","longitude":"102.80623","latitude":"24.78854"},
{"id":24,"city":"Kalepasan","street_address":"4548 Judy Drive","name":"nisl venenatis lacinia","longitude":"106.0799","latitude":"-6.26"},
{"id":25,"city":"Jugantang","street_address":"814 Boyd Crossing","name":"sit amet","longitude":"108.3301","latitude":"-7.1004"},
{"id":26,"city":"Dahe","street_address":"325 Petterle Trail","name":"pellentesque at","longitude":"114.37667","latitude":"38.13775"},
{"id":27,"city":"Liuxia","street_address":"80396 Ridgeview Way","name":"tempor","longitude":"120.05287","latitude":"30.24546"},
{"id":28,"city":"Dongshan","street_address":"329 Schiller Park","name":"tristique fusce congue","longitude":"130.31222","latitude":"47.34277"},
{"id":29,"city":"Anserma","street_address":"0057 Heath Avenue","name":"interdum venenatis","longitude":"-75.79111","latitude":"5.33278"},
{"id":30,"city":"Madrid","street_address":"634 6th Drive","name":"morbi ut odio","longitude":"-3.7026","latitude":"40.4165"},
{"id":31,"city":"Visby","street_address":"4675 Warner Pass","name":"amet lobortis sapien","longitude":"18.296","latitude":"57.6409"},
{"id":32,"city":"Hamburg","street_address":"20583 Starling Hill","name":"aliquam non mauris","longitude":"10.076","latitude":"53.5741"},
{"id":33,"city":"Sundbyberg","street_address":"16 Prairieview Terrace","name":"diam cras","longitude":"17.9711","latitude":"59.3613"},
{"id":34,"city":"Barreiros","street_address":"6 Arapahoe Pass","name":"vestibulum quam sapien","longitude":"-35.18639","latitude":"-8.81833"},
{"id":35,"city":"Orneta","street_address":"3 Northridge Pass","name":"est","longitude":"20.13328","latitude":"54.11483"},
{"id":36,"city":"Elói Mendes","street_address":"9 John Wall Parkway","name":"ut ultrices","longitude":"-45.56528","latitude":"-21.61"},
{"id":37,"city":"Jacksonville","street_address":"9 Paget Hill","name":"dapibus nulla suscipit","longitude":"-81.6854","latitude":"30.3189"},
{"id":38,"city":"Dzhebariki-Khaya","street_address":"4686 Helena Center","name":"iaculis diam","longitude":"135.84876","latitude":"62.21084"},
{"id":39,"city":"Črenšovci","street_address":"36115 Hallows Avenue","name":"lacus purus","longitude":"16.3041","latitude":"46.55794"},
{"id":40,"city":"Soe","street_address":"16709 Sherman Street","name":"dui vel","longitude":"124.28395","latitude":"-9.86071"},
{"id":41,"city":"Ciseda","street_address":"201 Myrtle Trail","name":"habitasse","longitude":"105.9883","latitude":"-6.6352"},
{"id":42,"city":"Mingfeng","street_address":"13190 Elgar Place","name":"id lobortis","longitude":"111.64278","latitude":"31.06167"},
{"id":43,"city":"Kakogawachō-honmachi","street_address":"6 Dennis Parkway","name":"nulla","longitude":"134.82905","latitude":"34.76943"},
{"id":44,"city":"Huaping","street_address":"8634 Di Loreto Center","name":"montes nascetur","longitude":"113.57285","latitude":"25.01302"},
{"id":45,"city":"Tanjungkerta","street_address":"48 Garrison Avenue","name":"in","longitude":"108.6767","latitude":"-7.0702"},
{"id":46,"city":"Shawnee Mission","street_address":"172 Golf View Way","name":"aliquam","longitude":"-94.832","latitude":"38.8999"},
{"id":47,"city":"Qingshan","street_address":"740 Tennessee Terrace","name":"morbi","longitude":"122.86243","latitude":"45.73724"},
{"id":48,"city":"Houzhai","street_address":"1558 Bonner Plaza","name":"faucibus","longitude":"117.02074","latitude":"23.42492"},
{"id":49,"city":"Jongorsari","street_address":"64358 Bashford Street","name":"pellentesque at nulla","longitude":"108.2796","latitude":"-7.1008"},
{"id":50,"city":"Almeirim","street_address":"2649 Sullivan Circle","name":"hac habitasse platea","longitude":"-8.6333","latitude":"39.2"},
{"id":51,"city":"Kočevje","street_address":"0021 Lerdahl Avenue","name":"eu sapien","longitude":"14.86333","latitude":"45.64333"},
{"id":52,"city":"Kari","street_address":"10981 Ryan Junction","name":"magnis dis parturient","longitude":"10.561","latitude":"11.2471"},
{"id":53,"city":"Sampir","street_address":"45846 Prentice Point","name":"rhoncus sed vestibulum","longitude":"116.8564","latitude":"-8.742"},
{"id":54,"city":"Lékhaio","street_address":"03788 Walton Way","name":"id massa","longitude":"22.85002","latitude":"37.93279"},
{"id":55,"city":"Protvino","street_address":"80865 Bultman Center","name":"penatibus","longitude":"37.21584","latitude":"54.8682"},
{"id":56,"city":"Mammari","street_address":"4 Sutteridge Circle","name":"nunc commodo","longitude":"33.2","latitude":"35.16667"},
{"id":57,"city":"Metsavan","street_address":"34 Oriole Junction","name":"nisi volutpat eleifend","longitude":"44.22877","latitude":"41.20156"},
{"id":58,"city":"Pavlivka","street_address":"8 North Way","name":"primis","longitude":"38.70917","latitude":"49.60864"},
{"id":59,"city":"‘Izrā","street_address":"3720 Springs Plaza","name":"aliquam convallis","longitude":"35.69278","latitude":"31.15889"},
{"id":60,"city":"Zhongguan","street_address":"48 Arkansas Way","name":"dapibus augue","longitude":"116.53264","latitude":"29.38379"},
{"id":61,"city":"Illintsi","street_address":"94785 Anthes Parkway","name":"eget","longitude":"29.21773","latitude":"49.10479"},
{"id":62,"city":"Haiyangsuo","street_address":"5 Continental Way","name":"primis in","longitude":"121.61647","latitude":"36.8064"},
{"id":63,"city":"Pyatigorsk","street_address":"5 Dexter Road","name":"dapibus","longitude":"43.05944","latitude":"44.04861"},
{"id":64,"city":"Novaya Igirma","street_address":"00 4th Junction","name":"cras non","longitude":"103.9112","latitude":"57.1334"},
{"id":65,"city":"Xucheng","street_address":"9331 Meadow Ridge Court","name":"dolor vel","longitude":"110.16712","latitude":"20.32917"},
{"id":66,"city":"Barkly East","street_address":"702 Mandrake Plaza","name":"eleifend donec ut","longitude":"27.59567","latitude":"-30.9683"},
{"id":67,"city":"Barmash","street_address":"88158 Pleasure Drive","name":"morbi sem","longitude":"20.61833","latitude":"40.27778"},
{"id":68,"city":"Palamadu","street_address":"2538 Cascade Court","name":"tincidunt ante","longitude":"120.754","latitude":"-10.0396"},
{"id":69,"city":"Pagaden","street_address":"059 Shelley Hill","name":"velit","longitude":"108.1566","latitude":"-7.3208"},
{"id":70,"city":"Havre-Saint-Pierre","street_address":"294 Dapin Parkway","name":"ipsum dolor sit","longitude":"-63.60264","latitude":"50.24342"},
{"id":71,"city":"Ljusdal","street_address":"7 Almo Parkway","name":"massa","longitude":"16.0913","latitude":"61.8288"},
{"id":72,"city":"Beidong","street_address":"07 East Junction","name":"mattis nibh ligula","longitude":"111.54265","latitude":"35.616"},
{"id":73,"city":"Lieqiao","street_address":"82 Little Fleur Court","name":"aliquam convallis","longitude":"117.52232","latitude":"28.56377"},
{"id":74,"city":"Presidente Médici","street_address":"812 Loftsgordon Point","name":"accumsan","longitude":"-61.90139","latitude":"-11.17528"},
{"id":75,"city":"Pakokku","street_address":"4 Pennsylvania Hill","name":"magna vestibulum","longitude":"95.08438","latitude":"21.33489"},
{"id":76,"city":"Xianghua","street_address":"16171 Calypso Trail","name":"rhoncus dui vel","longitude":"117.73453","latitude":"25.18815"},
{"id":77,"city":"Berehomet","street_address":"087 Gina Crossing","name":"lorem","longitude":"25.34855","latitude":"48.17882"},
{"id":78,"city":"Meikeng","street_address":"0025 Leroy Avenue","name":"nullam","longitude":"114.1118","latitude":"24.01012"},
{"id":79,"city":"Malawa","street_address":"56782 Stuart Way","name":"at diam","longitude":"120.27782","latitude":"15.95804"},
{"id":80,"city":"Montemor-o-Velho","street_address":"95 Straubel Alley","name":"vel","longitude":"-8.25","latitude":"40.1"},
{"id":81,"city":"Lubao","street_address":"22455 Westport Lane","name":"proin leo odio","longitude":"25.74885","latitude":"-5.38771"},
{"id":82,"city":"General Alvear","street_address":"2 Sheridan Plaza","name":"aliquet pulvinar sed","longitude":"-55.16667","latitude":"-27.43333"},
{"id":83,"city":"Buyuan","street_address":"8 Jay Court","name":"donec","longitude":"122.3574","latitude":"10.67086"},
{"id":84,"city":"Youssoufia","street_address":"193 Dunning Avenue","name":"felis eu sapien","longitude":"-8.52941","latitude":"32.24634"},
{"id":85,"city":"Almalaguês","street_address":"4512 Iowa Parkway","name":"in hac","longitude":"-8.3771","latitude":"40.1569"},
{"id":86,"city":"Kobeřice","street_address":"663 Linden Avenue","name":"odio porttitor id","longitude":"18.05212","latitude":"49.98548"},
{"id":87,"city":"Sanxing","street_address":"6 Del Mar Plaza","name":"praesent","longitude":"108.10776","latitude":"29.89661"},
{"id":88,"city":"Rancapare","street_address":"5 Caliangt Avenue","name":"ut erat curabitur","longitude":"107.9439","latitude":"-7.1568"},
{"id":89,"city":"Agen","street_address":"3996 Grim Alley","name":"vel enim sit","longitude":"0.6333","latitude":"44.2"},
{"id":90,"city":"Calanogas","street_address":"66976 Cascade Center","name":"risus semper porta","longitude":"124.1","latitude":"7.75"},
{"id":91,"city":"Markaz Bilād aţ Ţa‘ām","street_address":"7 Buell Street","name":"erat","longitude":"43.53639","latitude":"14.83361"},
{"id":92,"city":"Sarana","street_address":"200 Jana Road","name":"vivamus","longitude":"57.72586","latitude":"56.47728"},
{"id":93,"city":"Mporokoso","street_address":"7398 Hoard Way","name":"vehicula consequat","longitude":"30.12501","latitude":"-9.37272"},
{"id":94,"city":"Na Chueak","street_address":"058 Monterey Trail","name":"libero nam dui","longitude":"103.03184","latitude":"15.79338"},
{"id":95,"city":"San Antonio","street_address":"360 Springview Way","name":"pulvinar","longitude":"-100.5515","latitude":"22.4844"},
{"id":96,"city":"Baitu","street_address":"39 Lindbergh Street","name":"purus aliquet","longitude":"113.51465","latitude":"24.68296"},
{"id":97,"city":"Ulimonong","street_address":"4 Mandrake Lane","name":"donec posuere","longitude":"124.4052","latitude":"-8.2399"},
{"id":98,"city":"Titay","street_address":"21 Lighthouse Bay Way","name":"fusce lacus","longitude":"122.53444","latitude":"7.8125"},
{"id":99,"city":"Sukonolo Krajan","street_address":"4 Dovetail Hill","name":"pulvinar lobortis","longitude":"112.6167","latitude":"-8.1031"},
{"id":100,"city":"Kiffa","street_address":"23565 Mockingbird Trail","name":"hac habitasse platea","longitude":"-11.40453","latitude":"16.61659"},
{"id":101,"city":"Tabuc Pontevedra","street_address":"813 Roxbury Trail","name":"luctus","longitude":"122.81667","latitude":"11.48333"},
{"id":102,"city":"Guarenas","street_address":"32424 Farwell Plaza","name":"orci pede venenatis","longitude":"-66.60663","latitude":"10.46736"},
{"id":103,"city":"Colmar","street_address":"34 Reinke Way","name":"metus aenean fermentum","longitude":"7.3667","latitude":"48.0833"},
{"id":104,"city":"Donggaocun","street_address":"75 Prairie Rose Way","name":"posuere","longitude":"117.1119","latitude":"40.10653"},
{"id":105,"city":"Montasik","street_address":"43 American Ash Terrace","name":"amet consectetuer adipiscing","longitude":"95.42306","latitude":"5.50266"},
{"id":106,"city":"Nanto-shi","street_address":"8 Brown Circle","name":"laoreet ut","longitude":"136.91162","latitude":"36.56922"},
{"id":107,"city":"Gengqing","street_address":"6 Kennedy Way","name":"sit amet justo","longitude":"98.59579","latitude":"31.81649"},
{"id":108,"city":"San Pedro","street_address":"2051 Crownhardt Terrace","name":"morbi ut odio","longitude":"126.5175","latitude":"7.34194"},
{"id":109,"city":"Gaoyan","street_address":"01 Shopko Center","name":"habitasse","longitude":"108.6199","latitude":"31.93566"},
{"id":110,"city":"Talnakh","street_address":"92305 Springview Lane","name":"hac habitasse platea","longitude":"88.3972","latitude":"69.4865"},
{"id":111,"city":"Luna","street_address":"35379 Monica Court","name":"sed vestibulum sit","longitude":"121.72924","latitude":"16.96975"},
{"id":112,"city":"Seixo","street_address":"2318 2nd Center","name":"in faucibus orci","longitude":"-8.7183","latitude":"40.4492"},
{"id":113,"city":"Nglego","street_address":"9332 Northridge Place","name":"sapien","longitude":"111.4459","latitude":"-7.0013"},
{"id":114,"city":"Alburitel","street_address":"0 Bartelt Lane","name":"ut massa","longitude":"-8.5167","latitude":"39.65"},
{"id":115,"city":"Sosnówka","street_address":"7777 Annamark Terrace","name":"ut massa","longitude":"23.33814","latitude":"51.75084"},
{"id":116,"city":"Krajan Satu","street_address":"41 Ryan Parkway","name":"interdum in ante","longitude":"113.1867","latitude":"-8.0976"},
{"id":117,"city":"Parychy","street_address":"04198 Trailsway Junction","name":"nisl","longitude":"29.4176","latitude":"52.8042"},
{"id":118,"city":"Sukasari","street_address":"32477 Ryan Place","name":"vel nisl duis","longitude":"107.8947","latitude":"-7.0757"},
{"id":119,"city":"Taganak","street_address":"378 Browning Trail","name":"et magnis","longitude":"118.3","latitude":"6.08333"},
{"id":120,"city":"Daming","street_address":"18378 Farmco Court","name":"quis odio","longitude":"110.05115","latitude":"29.10783"},
{"id":121,"city":"Boundiali","street_address":"5914 Stuart Alley","name":"ultrices mattis","longitude":"-6.48694","latitude":"9.52167"},
{"id":122,"city":"Bianxiong","street_address":"60 Huxley Drive","name":"diam neque vestibulum","longitude":"89.05054","latitude":"29.31909"},
{"id":123,"city":"Novohrad-Volyns’kyy","street_address":"82804 Steensland Road","name":"amet","longitude":"27.6165","latitude":"50.59412"},
{"id":124,"city":"Извор","street_address":"04583 Forest Run Avenue","name":"tristique in tempus","longitude":"21.57833","latitude":"42.20389"},
{"id":125,"city":"Itaporanga","street_address":"92 Messerschmidt Way","name":"nec","longitude":"-49.48972","latitude":"-23.70778"},
{"id":126,"city":"Jiutai","street_address":"62270 Ilene Lane","name":"sollicitudin mi","longitude":"125.83278","latitude":"44.1525"},
{"id":127,"city":"Duitama","street_address":"3314 Cambridge Drive","name":"fusce","longitude":"-73.03408","latitude":"5.8245"},
{"id":128,"city":"Trafaria","street_address":"008 Corben Court","name":"morbi","longitude":"-9.2","latitude":"38.6667"},
{"id":129,"city":"Khawr Maksar","street_address":"9 Oak Valley Hill","name":"lectus pellentesque","longitude":"45.03337","latitude":"12.81227"},
{"id":130,"city":"Woodstock","street_address":"308 Haas Pass","name":"convallis","longitude":"-80.7497","latitude":"43.13339"},
{"id":131,"city":"Ad Dujayl","street_address":"62243 Warner Trail","name":"quis","longitude":"44.23444","latitude":"33.84667"},
{"id":132,"city":"Hongyang","street_address":"137 Mendota Crossing","name":"erat","longitude":"119.4625","latitude":"26.52861"},
{"id":133,"city":"Poitiers","street_address":"12817 Kingsford Pass","name":"mauris ullamcorper","longitude":"0.3333","latitude":"46.5833"},
{"id":134,"city":"Jobabo","street_address":"4 Farwell Trail","name":"neque","longitude":"-76.29944","latitude":"20.96917"},
{"id":135,"city":"Jieshipu","street_address":"50801 Jay Trail","name":"nulla","longitude":"105.53784","latitude":"35.61073"},
{"id":136,"city":"Bulakan","street_address":"01180 Algoma Junction","name":"convallis","longitude":"106.0329","latitude":"-6.6454"},
{"id":137,"city":"Granja","street_address":"43941 Derek Terrace","name":"nulla sed","longitude":"-7.4667","latitude":"41.2667"},
{"id":138,"city":"Xizhong","street_address":"77323 Oneill Way","name":"ipsum ac","longitude":"114.93892","latitude":"38.3103"},
{"id":139,"city":"Laixi","street_address":"3 Schlimgen Avenue","name":"imperdiet sapien","longitude":"116.57723","latitude":"27.21024"},
{"id":140,"city":"Meicheng","street_address":"29 Stone Corner Road","name":"nulla","longitude":"119.49907","latitude":"29.54289"},
{"id":141,"city":"Cilangla","street_address":"29951 West Terrace","name":"ac est","longitude":"108.1217","latitude":"-7.6753"},
{"id":142,"city":"Sinjil","street_address":"654 Blaine Point","name":"in imperdiet","longitude":"35.26545","latitude":"32.03334"},
{"id":143,"city":"Prudentópolis","street_address":"086 Cambridge Terrace","name":"auctor","longitude":"-50.97778","latitude":"-25.21306"},
{"id":144,"city":"Yaypan","street_address":"43152 Park Meadow Lane","name":"tristique","longitude":"70.81556","latitude":"40.37583"},
{"id":145,"city":"Laszki","street_address":"04 Mallard Road","name":"interdum","longitude":"22.89997","latitude":"50.0202"},
{"id":146,"city":"Padurung","street_address":"2936 Fairfield Park","name":"nisl duis","longitude":"106.3903","latitude":"-6.5871"},
{"id":147,"city":"Kawakawa","street_address":"19 Forest Run Pass","name":"nulla eget","longitude":"174.06667","latitude":"-35.38333"},
{"id":148,"city":"Chang Klang","street_address":"84 Becker Lane","name":"suspendisse accumsan","longitude":"99.56249","latitude":"8.37094"},
{"id":149,"city":"Kasese","street_address":"782 Cordelia Street","name":"justo","longitude":"30.08333","latitude":"0.18333"},
{"id":150,"city":"Mandráki","street_address":"1959 Clemons Hill","name":"nullam","longitude":"27.13333","latitude":"36.61139"},
{"id":151,"city":"Argungu","street_address":"5460 Hermina Parkway","name":"eu","longitude":"4.52687","latitude":"12.74334"},
{"id":152,"city":"Udon Thani","street_address":"84825 Grayhawk Court","name":"est","longitude":"102.78589","latitude":"17.41567"},
{"id":153,"city":"Cabinda","street_address":"4858 Sutherland Alley","name":"habitasse platea","longitude":"12.2","latitude":"-5.55"},
{"id":154,"city":"Labège","street_address":"8192 Northfield Way","name":"sodales sed tincidunt","longitude":"1.536","latitude":"43.5304"},
{"id":155,"city":"Tanahedang","street_address":"4802 Lotheville Alley","name":"enim","longitude":"122.9028","latitude":"-8.5534"},
{"id":156,"city":"Puteaux","street_address":"28933 Forest Run Crossing","name":"auctor sed tristique","longitude":"2.2389","latitude":"48.8834"},
{"id":157,"city":"Pagelaran","street_address":"41011 Moose Avenue","name":"magna vulputate luctus","longitude":"106.04011","latitude":"-6.8155"},
{"id":158,"city":"Dubravica","street_address":"8 Lillian Drive","name":"ipsum","longitude":"18.11882","latitude":"44.44131"},
{"id":159,"city":"Jarabacoa","street_address":"1 Roth Plaza","name":"ligula suspendisse","longitude":"-70.63595","latitude":"19.11683"},
{"id":160,"city":"Carpina","street_address":"31329 Sachtjen Street","name":"integer","longitude":"-35.25472","latitude":"-7.85083"},
{"id":161,"city":"Zahvizdya","street_address":"08 Annamark Court","name":"non","longitude":"24.65275","latitude":"48.91836"},
{"id":162,"city":"Pasirsongket Dua","street_address":"197 Veith Crossing","name":"mi in","longitude":"106.5946","latitude":"-7.3106"},
{"id":163,"city":"Fukuechō","street_address":"2221 Oneill Terrace","name":"at","longitude":"128.84561","latitude":"32.69732"},
{"id":164,"city":"Brezovica","street_address":"0957 Melvin Plaza","name":"amet turpis elementum","longitude":"15.88333","latitude":"45.73333"},
{"id":165,"city":"Montelíbano","street_address":"3294 Gale Street","name":"condimentum","longitude":"-75.4202","latitude":"7.97917"},
{"id":166,"city":"Ngoc Hon Doc","street_address":"884 Brentwood Lane","name":"turpis a pede","longitude":"104.92959","latitude":"10.18462"},
{"id":167,"city":"Trollhättan","street_address":"1 Pepper Wood Place","name":"suspendisse accumsan","longitude":"12.2886","latitude":"58.2837"},
{"id":168,"city":"Xinglong","street_address":"016 Raven Place","name":"vestibulum","longitude":"127.38611","latitude":"42.26167"},
{"id":169,"city":"Morropón","street_address":"4 Sutherland Way","name":"nisi","longitude":"-79.97076","latitude":"-5.1868"},
{"id":170,"city":"Changjiang","street_address":"8 Rockefeller Terrace","name":"sit amet","longitude":"120.55814","latitude":"32.10399"},
{"id":171,"city":"Mieszkowice","street_address":"5 Transport Center","name":"donec","longitude":"14.49346","latitude":"52.7873"},
{"id":172,"city":"Dimitrov","street_address":"03611 Esker Trail","name":"ultrices aliquet","longitude":"44.48999","latitude":"40.00752"},
{"id":173,"city":"Jieduo","street_address":"91315 Muir Lane","name":"curabitur gravida nisi","longitude":"95.3043","latitude":"32.60073"},
{"id":174,"city":"Sandaowan","street_address":"416 Oak Court","name":"duis at","longitude":"129.17444","latitude":"43.16556"},
{"id":175,"city":"Frydek","street_address":"327 Katie Way","name":"pellentesque eget nunc","longitude":"19.07278","latitude":"49.99626"},
{"id":176,"city":"Rainis","street_address":"6 Mandrake Park","name":"non velit","longitude":"126.86129","latitude":"4.23282"},
{"id":177,"city":"Zabukovica","street_address":"61178 Marcy Plaza","name":"ut erat curabitur","longitude":"15.15954","latitude":"46.21408"},
{"id":178,"city":"Montrouge","street_address":"07 Grover Avenue","name":"et ultrices","longitude":"2.3139","latitude":"48.8162"},
{"id":179,"city":"Tyrnyauz","street_address":"141 Logan Street","name":"quis orci nullam","longitude":"42.91833","latitude":"43.38278"},
{"id":180,"city":"Ceper","street_address":"2 Sloan Trail","name":"sociis natoque","longitude":"110.67889","latitude":"-7.67417"},
{"id":181,"city":"Viana","street_address":"90 Village Green Plaza","name":"vel","longitude":"-40.49611","latitude":"-20.39028"},
{"id":182,"city":"Rautjärvi","street_address":"65 Rockefeller Junction","name":"suspendisse ornare","longitude":"29.35","latitude":"61.43333"},
{"id":183,"city":"Zhiqing Songduo","street_address":"21962 Comanche Avenue","name":"sapien","longitude":"101.43333","latitude":"33.43333"},
{"id":184,"city":"Veranópolis","street_address":"8244 Lotheville Street","name":"varius nulla facilisi","longitude":"-51.54944","latitude":"-28.93611"},
{"id":185,"city":"Bordeaux","street_address":"995 Pine View Plaza","name":"vitae","longitude":"-0.5805","latitude":"44.8404"},
{"id":186,"city":"Berlin","street_address":"7 Scofield Avenue","name":"massa","longitude":"13.4232","latitude":"52.5136"},
{"id":187,"city":"Kurchaloy","street_address":"12 High Crossing Lane","name":"nunc vestibulum","longitude":"46.0881","latitude":"43.20184"},
{"id":188,"city":"Wakkanai","street_address":"2 Walton Pass","name":"mattis odio","longitude":"141.67389","latitude":"45.40944"},
{"id":189,"city":"Ostrzeszów","street_address":"8 Coolidge Avenue","name":"vulputate vitae nisl","longitude":"17.93355","latitude":"51.4264"},
{"id":190,"city":"Bristol","street_address":"09 Monica Pass","name":"turpis","longitude":"-2.6536","latitude":"51.4222"},
{"id":191,"city":"Sanxi","street_address":"858 Eastlawn Hill","name":"est","longitude":"118.42776","latitude":"30.37774"},
{"id":192,"city":"Sumberbaru","street_address":"26493 Roth Plaza","name":"consequat lectus in","longitude":"113.3887","latitude":"-8.1177"},
{"id":193,"city":"Gamagōri","street_address":"0 Raven Court","name":"porta","longitude":"137.23333","latitude":"34.83333"},
{"id":194,"city":"Lyon","street_address":"522 Sycamore Point","name":"lectus aliquam sit","longitude":"4.8467","latitude":"45.7485"},
{"id":195,"city":"Staryy Sambor","street_address":"4 Elgar Drive","name":"faucibus cursus urna","longitude":"23.00056","latitude":"49.43856"},
{"id":196,"city":"Duluth","street_address":"7 Beilfuss Crossing","name":"donec dapibus","longitude":"-84.1529","latitude":"33.9845"},
{"id":197,"city":"Zhoupu","street_address":"62 Oxford Drive","name":"duis bibendum","longitude":"120.06633","latitude":"30.09254"},
{"id":198,"city":"Dongzhaogezhuang","street_address":"579 3rd Point","name":"cras non","longitude":"117.37","latitude":"39.94889"},
{"id":199,"city":"Loma Bonita","street_address":"24 Clarendon Place","name":"duis bibendum morbi","longitude":"-101.5239","latitude":"20.9036"},
{"id":200,"city":"Tierp","street_address":"45455 Red Cloud Junction","name":"nulla","longitude":"17.5181","latitude":"60.3427"}]